[
    {
        "city": "Karachi", 
        "latitude": "24.8600", 
        "longitude": "67.0100", 
        "title": "Home Tutor Office", 
        "iso2": "PK", 
        "description": "Sindh", 
        "name": "Karachi office", 
        "population": "14835000", 
        "population_proper": "14835000"
    }, 
    {
        "city": "Islamabad Bahria town", 
        "latitude": "33.4786", 
        "longitude": "73.0789", 
        "title": "Doctor Ahsan Aftab", 
        "link" : "profile" ,
        "iso2": "PK", 
        "description": "Dr. Col (R). Ahsan Aftab is a Dermatologist and Cosmetologist. Dr. Col (R). Ahsan Hameed is among the Best Dermatologist in Islamabad. He has a MBBS and FCPS (Derma) degree along with an experience of 30 years. (Living in Bahria town main chakri road, Islamabad.)", 
        "name": "Islamabad Bahria town", 
        "population": "11021000", 
        "population_proper": "11021000"
    }, 
    {
        "city": "Islamabad Bahria town", 
        "latitude": "33.488126", 
        "longitude": "73.100348", 
        "title": "Zeeshan Ahmed", 
        "iso2": "PK", 
        "description": "Did bachelors in computer science recently and now teaching in cust.", 
        "name": "Engineer Zeeshan Ahmed", 
        "link" : "profile",
        "population": "3893672", 
        "population_proper": "3893672"
    }, 
    {
        "city": "Faisalabad", 
        "latitude": "31.4180", 
        "longitude": "73.0790", 
        "title": "Home Tutor Office", 
        "iso2": "PK", 
        "description": "Faisalabad", 
        "name": "Home tutor Faisal abad office", 
        "population": "3203846", 
        "population_proper": "3203846"
    }, 
    {
        "city": "Rawalpindi", 
        "latitude": "33.6007", 
        "longitude": "73.0679", 
        "title": "Home Tutor Office", 
        "icon" : "office_secondary.png",
        "iso2": "PK", 
        "description": "Punjab", 
        "name": "Home tutor Rawalpindi office", 
        "population": "2098231", 
        "population_proper": "2098231"
    }, 
    {
        "city": "Peshawar", 
        "latitude": "34.0000", 
        "longitude": "71.5000", 
        "title": "Home Tutor Office", 
        "iso2": "PK", 
        "description": "Khyber Pakhtunkhwa", 
        "name": "admin", 
        "population": "1970042", 
        "population_proper": "1970042"
    }, 
    {
        "city": "Rawalpindi bahria town", 
        "latitude": "33.4786", 
        "longitude": "73.0789", 
        "title": "Shehzad", 
        "iso2": "PK", 
        "description": "Dr. Tahir Shehzad is among the Best Dermatologists in Rawalpindi. Dr Tahir Shehzad, MBBS, FCPS is a qualified Dermatologist & Venereologist with more than 22 years experience in his field. He has served in Pakistan Army as a Consultant Dermatologist before opening his clinic at Bahria Town Rawalpindi.", 
        "name": "Doctor tahir shehzad", 
        "population": "1860310", 
        "population_proper": "1860310"
    }, 
    {
        "city": "Multan", 
        "latitude": "30.1978", 
        "longitude": "71.4711", 
        "title": "Home Tutor Office", 
        "iso2": "PK", 
        "description": "Punjab", 
        "name": "Home tutor office Multan", 
        "population": "1606481", 
        "population_proper": "1606481"
    }, 
    {
        "city": "Gujranwala", 
        "latitude": "32.1500", 
        "longitude": "74.1833", 
        "title": "Home Tutor Office", 
        "iso2": "PK", 
        "description": "Punjab", 
        "name": "Home tutor office Gujranwala", 
        "population": "1569090", 
        "population_proper": "1569090"
    }, 
    {
        "city": "Islamabad", 
        "latitude": "33.6989", 
        "longitude": "73.0369", 
        "title": "Teacher Malik Ahsan Aftab", 
        "icon" : "teacher.png" ,
        "iso2": "PK", 
        "description": "Isl\u0101m\u0101b\u0101d", 
        "name": "primary", 
        "population": "1365000", 
        "population_proper": "1365000"
    }, 
    {
        "city": "Quetta", 
        "latitude": "30.1920", 
        "longitude": "67.0070", 
        "title": "Home Tutor Office", 
        "iso2": "PK", 
        "description": "Balochist\u0101n", 
        "name": "Quetta", 
        "population": "1140000", 
        "population_proper": "1140000"
    }, 
    {
        "city": "Bahawalpur", 
        "latitude": "29.3956", 
        "longitude": "71.6722", 
        "title": "Home Tutor Operator", 
        "icon" : "operator.webp" , 
        "iso2": "PK", 
        "description": "Punjab", 
        "name": "Bahawalpur", 
        "population": "681696", 
        "population_proper": "681696"
    }, 
    {
        "city": "Sargodha", 
        "latitude": "32.0836", 
        "longitude": "72.6711", 
        "title": "Pakistan", 
        "iso2": "PK", 
        "description": "Punjab", 
        "name": "Islamabad", 
        "population": "602631", 
        "population_proper": "602631"
    }, 
    {
        "city": "New Mirpur", 
        "latitude": "33.1333", 
        "longitude": "73.7500", 
        "title": "Karachi", 
        "iso2": "PK", 
        "description": "Azad Kashmir", 
        "name": "minor", 
        "population": "523500", 
        "population_proper": "523500"
    }, 
    {
        "city": "Chiniot", 
        "latitude": "31.7167", 
        "longitude": "72.9833", 
        "title": "Pakistan", 
        "iso2": "PK", 
        "description": "Punjab", 
        "name": "Lahore", 
        "population": "477781", 
        "population_proper": "477781"
    }, 
    {
        "city": "Sukkur", 
        "latitude": "27.6995", 
        "longitude": "68.8673", 
        "title": "Multan", 
        "iso2": "PK", 
        "description": "Sindh", 
        "name": "minor", 
        "population": "476776", 
        "population_proper": "476776"
    }, 
    {
        "city": "Larkana", 
        "latitude": "27.5600", 
        "longitude": "68.2264", 
        "title": "Pakistan", 
        "iso2": "PK", 
        "description": "Sindh", 
        "name": "minor", 
        "population": "435817", 
        "population_proper": "435817"
    }, 
    {
        "city": "Shekhupura", 
        "latitude": "31.7083", 
        "longitude": "74.0000", 
        "title": "Pakistan", 
        "iso2": "PK", 
        "description": "Punjab", 
        "name": "minor", 
        "population": "411834", 
        "population_proper": "411834"
    }, 
    {
        "city": "Jhang City", 
        "latitude": "31.2681", 
        "longitude": "72.3181", 
        "title": "Pakistan", 
        "iso2": "PK", 
        "description": "Punjab", 
        "name": "minor", 
        "population": "365198", 
        "population_proper": "365198"
    }, 
    {
        "city": "Rahimyar Khan", 
        "latitude": "28.4202", 
        "longitude": "70.2952", 
        "title": "Pakistan", 
        "iso2": "PK", 
        "description": "Punjab", 
        "name": "", 
        "population": "353203", 
        "population_proper": "353203"
    }, 
    {
        "city": "Gujrat", 
        "latitude": "32.5736", 
        "longitude": "74.0789", 
        "title": "Pakistan", 
        "iso2": "PK", 
        "description": "Punjab", 
        "name": "minor", 
        "population": "328512", 
        "population_proper": "328512"
    }, 
    {
        "city": "Kasur", 
        "latitude": "31.1167", 
        "longitude": "74.4500", 
        "title": "Pakistan", 
        "iso2": "PK", 
        "description": "Punjab", 
        "name": "minor", 
        "population": "314617", 
        "population_proper": "314617"
    }, 
    {
        "city": "Mardan", 
        "latitude": "34.1958", 
        "longitude": "72.0447", 
        "title": "Pakistan", 
        "iso2": "PK", 
        "description": "Khyber Pakhtunkhwa", 
        "name": "minor", 
        "population": "300424", 
        "population_proper": "300424"
    }, 
    {
        "city": "Mingaora", 
        "latitude": "34.7717", 
        "longitude": "72.3600", 
        "title": "Pakistan", 
        "iso2": "PK", 
        "description": "Khyber Pakhtunkhwa", 
        "name": "", 
        "population": "279914", 
        "population_proper": "279914"
    }, 
    {
        "city": "Dera Ghazi Khan", 
        "latitude": "30.0500", 
        "longitude": "70.6333", 
        "title": "Pakistan", 
        "iso2": "PK", 
        "description": "Punjab", 
        "name": "minor", 
        "population": "264742", 
        "population_proper": "264742"
    }, 
    {
        "city": "Nawabshah", 
        "latitude": "26.2442", 
        "longitude": "68.4100", 
        "title": "Pakistan", 
        "iso2": "PK", 
        "description": "Sindh", 
        "name": "minor", 
        "population": "263102", 
        "population_proper": "263102"
    }, 
    {
        "city": "Sahiwal", 
        "latitude": "30.6706", 
        "longitude": "73.1064", 
        "title": "Pakistan", 
        "iso2": "PK", 
        "description": "Punjab", 
        "name": "minor", 
        "population": "247706", 
        "population_proper": "247706"
    }, 
    {
        "city": "Mirpur Khas", 
        "latitude": "25.5269", 
        "longitude": "69.0111", 
        "title": "Pakistan", 
        "iso2": "PK", 
        "description": "Sindh", 
        "name": "minor", 
        "population": "236961", 
        "population_proper": "236961"
    }, 
    {
        "city": "Okara", 
        "latitude": "30.8100", 
        "longitude": "73.4597", 
        "title": "Pakistan", 
        "iso2": "PK", 
        "description": "Punjab", 
        "name": "minor", 
        "population": "232386", 
        "population_proper": "232386"
    }, 
    {
        "city": "Mandi Burewala", 
        "latitude": "30.1500", 
        "longitude": "72.6833", 
        "title": "Pakistan", 
        "iso2": "PK", 
        "description": "Punjab", 
        "name": "Mandi Burewala", 
        "population": "203454", 
        "population_proper": "203454"
    }, 
    {
        "city": "Jacobabad", 
        "latitude": "28.2769", 
        "longitude": "68.4514", 
        "title": "Pakistan", 
        "iso2": "PK", 
        "description": "Sindh", 
        "name": "minor", 
        "population": "200815", 
        "population_proper": "200815"
    }, 
    {
        "city": "Saddiqabad", 
        "latitude": "28.3006", 
        "longitude": "70.1302", 
        "title": "Pakistan", 
        "iso2": "PK", 
        "description": "Punjab", 
        "name": "", 
        "population": "189876", 
        "population_proper": "189876"
    }, 
    {
        "city": "Kohat", 
        "latitude": "33.5869", 
        "longitude": "71.4414", 
        "title": "Pakistan", 
        "iso2": "PK", 
        "description": "Khyber Pakhtunkhwa", 
        "name": "minor", 
        "population": "170800", 
        "population_proper": "170800"
    }, 
    {
        "city": "Muridke", 
        "latitude": "31.8020", 
        "longitude": "74.2550", 
        "title": "Pakistan", 
        "iso2": "PK", 
        "description": "Punjab", 
        "name": "", 
        "population": "163268", 
        "population_proper": "163268"
    }, 
    {
        "city": "Muzaffargarh", 
        "latitude": "30.0703", 
        "longitude": "71.1933", 
        "title": "Pakistan", 
        "iso2": "PK", 
        "description": "Punjab", 
        "name": "minor", 
        "population": "163268", 
        "population_proper": "163268"
    }, 
    {
        "city": "Khanpur", 
        "latitude": "28.6471", 
        "longitude": "70.6620", 
        "title": "Pakistan", 
        "iso2": "PK", 
        "description": "Punjab", 
        "name": "", 
        "population": "160308", 
        "population_proper": "160308"
    }, 
    {
        "city": "Gojra", 
        "latitude": "31.1500", 
        "longitude": "72.6833", 
        "title": "Pakistan", 
        "iso2": "PK", 
        "description": "Punjab", 
        "name": "", 
        "population": "157863", 
        "population_proper": "157863"
    }, 
    {
        "city": "Mandi Bahauddin", 
        "latitude": "32.5861", 
        "longitude": "73.4917", 
        "title": "Pakistan", 
        "iso2": "PK", 
        "description": "Punjab", 
        "name": "minor", 
        "population": "157352", 
        "population_proper": "157352"
    }, 
    {
        "city": "Abbottabad", 
        "latitude": "34.1500", 
        "longitude": "73.2167", 
        "title": "Pakistan", 
        "iso2": "PK", 
        "description": "Khyber Pakhtunkhwa", 
        "name": "minor", 
        "population": "148587", 
        "population_proper": "148587"
    }, 
    {
        "city": "Dadu", 
        "latitude": "26.7319", 
        "longitude": "67.7750", 
        "title": "Pakistan", 
        "iso2": "PK", 
        "description": "Sindh", 
        "name": "minor", 
        "population": "146179", 
        "population_proper": "146179"
    }, 
    {
        "city": "Khuzdar", 
        "latitude": "27.8000", 
        "longitude": "66.6167", 
        "title": "Pakistan", 
        "iso2": "PK", 
        "description": "Balochist\u0101n", 
        "name": "", 
        "population": "141395", 
        "population_proper": "141395"
    }, 
    {
        "city": "Pakpattan", 
        "latitude": "30.3500", 
        "longitude": "73.4000", 
        "title": "Pakistan", 
        "iso2": "PK", 
        "description": "Punjab", 
        "name": "minor", 
        "population": "139525", 
        "population_proper": "139525"
    }, 
    {
        "city": "Tando Allahyar", 
        "latitude": "25.4667", 
        "longitude": "68.7167", 
        "title": "Pakistan", 
        "iso2": "PK", 
        "description": "Sindh", 
        "name": "minor", 
        "population": "133487", 
        "population_proper": "133487"
    }, 
    {
        "city": "Vihari", 
        "latitude": "30.0419", 
        "longitude": "72.3528", 
        "title": "Pakistan", 
        "iso2": "PK", 
        "description": "Punjab", 
        "name": "minor", 
        "population": "128034", 
        "population_proper": "128034"
    }, 
    {
        "city": "Jaranwala", 
        "latitude": "31.3342", 
        "longitude": "73.4194", 
        "title": "Pakistan", 
        "iso2": "PK", 
        "description": "Punjab", 
        "name": "", 
        "population": "127973", 
        "population_proper": "127973"
    }, 
    {
        "city": "Kamalia", 
        "latitude": "30.7258", 
        "longitude": "72.6447", 
        "title": "Pakistan", 
        "iso2": "PK", 
        "description": "Punjab", 
        "name": "", 
        "population": "121401", 
        "population_proper": "121401"
    }, 
    {
        "city": "Kot Addu", 
        "latitude": "30.4700", 
        "longitude": "70.9644", 
        "title": "Pakistan", 
        "iso2": "PK", 
        "description": "Punjab", 
        "name": "", 
        "population": "120479", 
        "population_proper": "120479"
    }, 
    {
        "city": "Nowshera", 
        "latitude": "34.0153", 
        "longitude": "71.9747", 
        "title": "Pakistan", 
        "iso2": "PK", 
        "description": "Khyber Pakhtunkhwa", 
        "name": "minor", 
        "population": "118594", 
        "population_proper": "118594"
    }, 
    {
        "city": "Swabi", 
        "latitude": "34.1167", 
        "longitude": "72.4667", 
        "title": "Pakistan", 
        "iso2": "PK", 
        "description": "Khyber Pakhtunkhwa", 
        "name": "minor", 
        "population": "115018", 
        "population_proper": "115018"
    }, 
    {
        "city": "Dera Ismail Khan", 
        "latitude": "31.8167", 
        "longitude": "70.9167", 
        "title": "Pakistan", 
        "iso2": "PK", 
        "description": "Khyber Pakhtunkhwa", 
        "name": "minor", 
        "population": "109686", 
        "population_proper": "109686"
    }, 
    {
        "city": "Chaman", 
        "latitude": "30.9210", 
        "longitude": "66.4597", 
        "title": "Pakistan", 
        "iso2": "PK", 
        "description": "Balochist\u0101n", 
        "name": "", 
        "population": "107660", 
        "population_proper": "107660"
    }, 
    {
        "city": "Charsadda", 
        "latitude": "34.1453", 
        "longitude": "71.7308", 
        "title": "Pakistan", 
        "iso2": "PK", 
        "description": "Khyber Pakhtunkhwa", 
        "name": "minor", 
        "population": "105414", 
        "population_proper": "105414"
    }, 
    {
        "city": "Kandhkot", 
        "latitude": "28.4000", 
        "longitude": "69.3000", 
        "title": "Pakistan", 
        "iso2": "PK", 
        "description": "Sindh", 
        "name": "", 
        "population": "105011", 
        "population_proper": "105011"
    }, 
    {
        "city": "Hasilpur", 
        "latitude": "29.6967", 
        "longitude": "72.5542", 
        "title": "Pakistan", 
        "iso2": "PK", 
        "description": "Punjab", 
        "name": "", 
        "population": "99171", 
        "population_proper": "99171"
    }, 
    {
        "city": "Muzaffarabad", 
        "latitude": "34.3700", 
        "longitude": "73.4711", 
        "title": "Pakistan", 
        "iso2": "PK", 
        "description": "Azad Kashmir", 
        "name": "", 
        "population": "96000", 
        "population_proper": "96000"
    }, 
    {
        "city": "Mianwali", 
        "latitude": "32.5853", 
        "longitude": "71.5436", 
        "title": "Pakistan", 
        "iso2": "PK", 
        "description": "Punjab", 
        "name": "minor", 
        "population": "95007", 
        "population_proper": "95007"
    }, 
    {
        "city": "Jalalpur Jattan", 
        "latitude": "32.7667", 
        "longitude": "74.2167", 
        "title": "Pakistan", 
        "iso2": "PK", 
        "description": "Punjab", 
        "name": "", 
        "population": "90130", 
        "population_proper": "90130"
    }, 
    {
        "city": "Bhakkar", 
        "latitude": "31.6333", 
        "longitude": "71.0667", 
        "title": "Pakistan", 
        "iso2": "PK", 
        "description": "Punjab", 
        "name": "minor", 
        "population": "88472", 
        "population_proper": "88472"
    }, 
    {
        "city": "Zhob", 
        "latitude": "31.3417", 
        "longitude": "69.4486", 
        "title": "Pakistan", 
        "iso2": "PK", 
        "description": "Balochist\u0101n", 
        "name": "minor", 
        "population": "88356", 
        "population_proper": "50537"
    }, 
    {
        "city": "Kharian", 
        "latitude": "32.8110", 
        "longitude": "73.8650", 
        "title": "Pakistan", 
        "iso2": "PK", 
        "description": "Punjab", 
        "name": "", 
        "population": "85765", 
        "population_proper": "85765"
    }, 
    {
        "city": "Mian Channun", 
        "latitude": "30.4397", 
        "longitude": "72.3544", 
        "title": "Pakistan", 
        "iso2": "PK", 
        "description": "Punjab", 
        "name": "", 
        "population": "82586", 
        "population_proper": "82586"
    }, 
    {
        "city": "Jamshoro", 
        "latitude": "25.4283", 
        "longitude": "68.2822", 
        "title": "Pakistan", 
        "iso2": "PK", 
        "description": "Sindh", 
        "name": "minor", 
        "population": "80000", 
        "population_proper": "80000"
    }, 
    {
        "city": "Pattoki", 
        "latitude": "31.0214", 
        "longitude": "73.8528", 
        "title": "Pakistan", 
        "iso2": "PK", 
        "description": "Punjab", 
        "name": "", 
        "population": "77210", 
        "population_proper": "77210"
    }, 
    {
        "city": "Harunabad", 
        "latitude": "29.6100", 
        "longitude": "73.1361", 
        "title": "Pakistan", 
        "iso2": "PK", 
        "description": "Punjab", 
        "name": "", 
        "population": "77206", 
        "population_proper": "77206"
    }, 
    {
        "city": "Toba Tek Singh", 
        "latitude": "30.9667", 
        "longitude": "72.4833", 
        "title": "Pakistan", 
        "iso2": "PK", 
        "description": "Punjab", 
        "name": "minor", 
        "population": "75943", 
        "population_proper": "75943"
    }, 
    {
        "city": "Shakargarh", 
        "latitude": "32.2628", 
        "longitude": "75.1583", 
        "title": "Pakistan", 
        "iso2": "PK", 
        "description": "Punjab", 
        "name": "", 
        "population": "73160", 
        "population_proper": "73160"
    }, 
    {
        "city": "Hujra Shah Muqim", 
        "latitude": "30.7333", 
        "longitude": "73.8167", 
        "title": "Pakistan", 
        "iso2": "PK", 
        "description": "Punjab", 
        "name": "", 
        "population": "70204", 
        "population_proper": "70204"
    }, 
    {
        "city": "Kabirwala", 
        "latitude": "30.4068", 
        "longitude": "71.8667", 
        "title": "Pakistan", 
        "iso2": "PK", 
        "description": "Punjab", 
        "name": "", 
        "population": "70123", 
        "population_proper": "70123"
    }, 
    {
        "city": "Mansehra", 
        "latitude": "34.3333", 
        "longitude": "73.2000", 
        "title": "Pakistan", 
        "iso2": "PK", 
        "description": "Khyber Pakhtunkhwa", 
        "name": "minor", 
        "population": "69085", 
        "population_proper": "69085"
    }, 
    {
        "city": "Lala Musa", 
        "latitude": "32.7012", 
        "longitude": "73.9605", 
        "title": "Pakistan", 
        "iso2": "PK", 
        "description": "Punjab", 
        "name": "", 
        "population": "67283", 
        "population_proper": "67283"
    }, 
    {
        "city": "Nankana Sahib", 
        "latitude": "31.4492", 
        "longitude": "73.7124", 
        "title": "Pakistan", 
        "iso2": "PK", 
        "description": "Punjab", 
        "name": "", 
        "population": "63073", 
        "population_proper": "63073"
    }, 
    {
        "city": "Bannu", 
        "latitude": "32.9889", 
        "longitude": "70.6056", 
        "title": "Pakistan", 
        "iso2": "PK", 
        "description": "Khyber Pakhtunkhwa", 
        "name": "minor", 
        "population": "62191", 
        "population_proper": "62191"
    }, 
    {
        "city": "Timargara", 
        "latitude": "34.8281", 
        "longitude": "71.8408", 
        "title": "Pakistan", 
        "iso2": "PK", 
        "description": "Khyber Pakhtunkhwa", 
        "name": "minor", 
        "population": "58050", 
        "population_proper": "58050"
    }, 
    {
        "city": "Parachinar", 
        "latitude": "33.8992", 
        "longitude": "70.1008", 
        "title": "Pakistan", 
        "iso2": "PK", 
        "description": "Khyber Pakhtunkhwa", 
        "name": "", 
        "population": "55685", 
        "population_proper": "55685"
    }, 
    {
        "city": "Gwadar", 
        "latitude": "25.1264", 
        "longitude": "62.3225", 
        "title": "Pakistan", 
        "iso2": "PK", 
        "description": "Balochist\u0101n", 
        "name": "minor", 
        "population": "51901", 
        "population_proper": "23364"
    }, 
    {
        "city": "Abdul Hakim", 
        "latitude": "30.5522", 
        "longitude": "72.1278", 
        "title": "Pakistan", 
        "iso2": "PK", 
        "description": "Punjab", 
        "name": "", 
        "population": "51494", 
        "population_proper": "51494"
    }, 
    {
        "city": "Hassan Abdal", 
        "latitude": "33.8195", 
        "longitude": "72.6890", 
        "title": "Taineee Tutor Zeeshan Ahmed",
        "icon" : "trainee1.png" ,
        "iso2": "PK", 
        "description": "Near Hassan Abdal", 
        "name": "", 
        "population": "50044", 
        "population_proper": "50044"
    }, 
    {
        "city": "Tank", 
        "latitude": "32.2167", 
        "longitude": "70.3833", 
        "title": "Pakistan", 
        "iso2": "PK", 
        "description": "Khyber Pakhtunkhwa", 
        "name": "minor", 
        "population": "44996", 
        "population_proper": "44996"
    }, 
    {
        "city": "Hangu", 
        "latitude": "33.5281", 
        "longitude": "71.0572", 
        "title": "Pakistan", 
        "iso2": "PK", 
        "description": "Khyber Pakhtunkhwa", 
        "name": "minor", 
        "population": "39766", 
        "population_proper": "39766"
    }, 
    {
        "city": "Risalpur Cantonment", 
        "latitude": "34.0049", 
        "longitude": "71.9989", 
        "title": "Pakistan", 
        "iso2": "PK", 
        "description": "Khyber Pakhtunkhwa", 
        "name": "", 
        "population": "36653", 
        "population_proper": "36653"
    }, 
    {
        "city": "Karak", 
        "latitude": "33.1167", 
        "longitude": "71.0833", 
        "title": "Pakistan", 
        "iso2": "PK", 
        "description": "Khyber Pakhtunkhwa", 
        "name": "minor", 
        "population": "35844", 
        "population_proper": "35844"
    }, 
    {
        "city": "Kundian", 
        "latitude": "32.4522", 
        "longitude": "71.4718", 
        "title": "Pakistan", 
        "iso2": "PK", 
        "description": "Punjab", 
        "name": "", 
        "population": "35406", 
        "population_proper": "35406"
    }, 
    {
        "city": "Umarkot", 
        "latitude": "25.3614", 
        "longitude": "69.7361", 
        "title": "Pakistan", 
        "iso2": "PK", 
        "description": "Sindh", 
        "name": "minor", 
        "population": "35059", 
        "population_proper": "35059"
    }, 
    {
        "city": "Chitral", 
        "latitude": "35.8511", 
        "longitude": "71.7889", 
        "title": "Pakistan", 
        "iso2": "PK", 
        "description": "Khyber Pakhtunkhwa", 
        "name": "minor", 
        "population": "31100", 
        "population_proper": "31100"
    }, 
    {
        "city": "Dainyor", 
        "latitude": "35.9206", 
        "longitude": "74.3783", 
        "title": "Pakistan", 
        "iso2": "PK", 
        "description": "Gilgit-Baltistan", 
        "name": "", 
        "population": "25000", 
        "population_proper": "25000"
    }, 
    {
        "city": "Kulachi", 
        "latitude": "31.9286", 
        "longitude": "70.4592", 
        "title": "Pakistan", 
        "iso2": "PK", 
        "description": "Khyber Pakhtunkhwa", 
        "name": "", 
        "population": "24738", 
        "population_proper": "24738"
    }, 
    {
        "city": "Kotli", 
        "latitude": "33.5156", 
        "longitude": "73.9019", 
        "title": "Pakistan", 
        "iso2": "PK", 
        "description": "Azad Kashmir", 
        "name": "minor", 
        "population": "21462", 
        "population_proper": "21462"
    }, 
    {
        "city": "Gilgit", 
        "latitude": "35.9208", 
        "longitude": "74.3144", 
        "title": "Pakistan", 
        "iso2": "PK", 
        "description": "Gilgit-Baltistan", 
        "name": "minor", 
        "population": "8851", 
        "population_proper": "8851"
    }, 
    {
        "city": "Hyderabad City", 
        "latitude": "25.3969", 
        "longitude": "68.3772", 
        "title": "Pakistan", 
        "iso2": "PK", 
        "description": "Sindh", 
        "name": "minor", 
        "population": "", 
        "population_proper": ""
    }, 
    {
        "city": "Narowal", 
        "latitude": "32.1020", 
        "longitude": "74.8730", 
        "title": "Pakistan", 
        "iso2": "PK", 
        "description": "Punjab", 
        "name": "minor", 
        "population": "", 
        "population_proper": ""
    }, 
    {
        "city": "Khairpur Mir\u2019s", 
        "latitude": "27.5295", 
        "longitude": "68.7592", 
        "title": "Pakistan", 
        "iso2": "PK", 
        "description": "Sindh", 
        "name": "minor", 
        "population": "", 
        "population_proper": ""
    }, 
    {
        "city": "Khanewal", 
        "latitude": "30.3017", 
        "longitude": "71.9321", 
        "title": "Pakistan", 
        "iso2": "PK", 
        "description": "Punjab", 
        "name": "minor", 
        "population": "", 
        "population_proper": ""
    }, 
    {
        "city": "Jhelum", 
        "latitude": "32.9333", 
        "longitude": "73.7333", 
        "title": "Pakistan", 
        "iso2": "PK", 
        "description": "Punjab", 
        "name": "minor", 
        "population": "", 
        "population_proper": ""
    }, 
    {
        "city": "Haripur", 
        "latitude": "33.9942", 
        "longitude": "72.9333", 
        "title": "Pakistan", 
        "iso2": "PK", 
        "description": "Khyber Pakhtunkhwa", 
        "name": "minor", 
        "population": "", 
        "population_proper": ""
    }, 
    {
        "city": "Shikarpur", 
        "latitude": "27.9556", 
        "longitude": "68.6382", 
        "title": "Pakistan", 
        "iso2": "PK", 
        "description": "Sindh", 
        "name": "minor", 
        "population": "", 
        "population_proper": ""
    }, 
    {
        "city": "Rawala Kot", 
        "latitude": "33.8578", 
        "longitude": "73.7604", 
        "title": "Pakistan", 
        "iso2": "PK", 
        "description": "Azad Kashmir", 
        "name": "minor", 
        "population": "", 
        "population_proper": ""
    }, 
    {
        "city": "Hafizabad", 
        "latitude": "32.0709", 
        "longitude": "73.6880", 
        "title": "Pakistan", 
        "iso2": "PK", 
        "description": "Punjab", 
        "name": "minor", 
        "population": "", 
        "population_proper": ""
    }, 
    {
        "city": "Lodhran", 
        "latitude": "29.5339", 
        "longitude": "71.6324", 
        "title": "Pakistan", 
        "iso2": "PK", 
        "description": "Punjab", 
        "name": "minor", 
        "population": "", 
        "population_proper": ""
    }, 
    {
        "city": "Malakand", 
        "latitude": "34.5656", 
        "longitude": "71.9304", 
        "title": "Pakistan", 
        "iso2": "PK", 
        "description": "Khyber Pakhtunkhwa", 
        "name": "minor", 
        "population": "", 
        "population_proper": ""
    }, 
    {
        "city": "Attock City", 
        "latitude": "33.7667", 
        "longitude": "72.3598", 
        "title": "Pakistan", 
        "iso2": "PK", 
        "description": "Punjab", 
        "name": "minor", 
        "population": "", 
        "population_proper": ""
    }, 
    {
        "city": "Batgram", 
        "latitude": "34.6796", 
        "longitude": "73.0263", 
        "title": "Pakistan", 
        "iso2": "PK", 
        "description": "Khyber Pakhtunkhwa", 
        "name": "minor", 
        "population": "", 
        "population_proper": ""
    }, 
    {
        "city": "Matiari", 
        "latitude": "25.5971", 
        "longitude": "68.4467", 
        "title": "Pakistan", 
        "iso2": "PK", 
        "description": "Sindh", 
        "name": "minor", 
        "population": "", 
        "population_proper": ""
    }, 
    {
        "city": "Ghotki", 
        "latitude": "28.0064", 
        "longitude": "69.3150", 
        "title": "Pakistan", 
        "iso2": "PK", 
        "description": "Sindh", 
        "name": "minor", 
        "population": "", 
        "population_proper": ""
    }, 
    {
        "city": "Naushahro Firoz", 
        "latitude": "26.8401", 
        "longitude": "68.1227", 
        "title": "Pakistan", 
        "iso2": "PK", 
        "description": "Sindh", 
        "name": "minor", 
        "population": "", 
        "population_proper": ""
    }, 
    {
        "city": "Alpurai", 
        "latitude": "34.9000", 
        "longitude": "72.6556", 
        "title": "Pakistan", 
        "iso2": "PK", 
        "description": "Khyber Pakhtunkhwa", 
        "name": "minor", 
        "population": "", 
        "population_proper": ""
    }, 
    {
        "city": "Bagh", 
        "latitude": "33.9803", 
        "longitude": "73.7747", 
        "title": "Pakistan", 
        "iso2": "PK", 
        "description": "Azad Kashmir", 
        "name": "minor", 
        "population": "", 
        "population_proper": ""
    }, 
    {
        "city": "Daggar", 
        "latitude": "34.5111", 
        "longitude": "72.4844", 
        "title": "Pakistan", 
        "iso2": "PK", 
        "description": "Khyber Pakhtunkhwa", 
        "name": "minor", 
        "population": "", 
        "population_proper": ""
    }, 
    {
        "city": "Bahawalnagar", 
        "latitude": "29.9983", 
        "longitude": "73.2527", 
        "title": "Pakistan", 
        "iso2": "PK", 
        "description": "Punjab", 
        "name": "minor", 
        "population": "", 
        "population_proper": ""
    }, 
    {
        "city": "Leiah", 
        "latitude": "30.9646", 
        "longitude": "70.9444", 
        "title": "Pakistan", 
        "iso2": "PK", 
        "description": "Punjab", 
        "name": "minor", 
        "population": "", 
        "population_proper": ""
    }, 
    {
        "city": "Tando Muhammad Khan", 
        "latitude": "25.1239", 
        "longitude": "68.5389", 
        "title": "Pakistan", 
        "iso2": "PK", 
        "description": "Sindh", 
        "name": "minor", 
        "population": "", 
        "population_proper": ""
    }, 
    {
        "city": "Chakwal", 
        "latitude": "32.9300", 
        "longitude": "72.8500", 
        "title": "Pakistan", 
        "iso2": "PK", 
        "description": "Punjab", 
        "name": "minor", 
        "population": "", 
        "population_proper": ""
    }, 
    {
        "city": "Khushab", 
        "latitude": "32.2952", 
        "longitude": "72.3502", 
        "title": "Pakistan", 
        "iso2": "PK", 
        "description": "Punjab", 
        "name": "minor", 
        "population": "", 
        "population_proper": ""
    }, 
    {
        "city": "Badin", 
        "latitude": "24.6558", 
        "longitude": "68.8383", 
        "title": "Pakistan", 
        "iso2": "PK", 
        "description": "Sindh", 
        "name": "minor", 
        "population": "", 
        "population_proper": ""
    }, 
    {
        "city": "Lakki", 
        "latitude": "32.6072", 
        "longitude": "70.9123", 
        "title": "Pakistan", 
        "iso2": "PK", 
        "description": "Khyber Pakhtunkhwa", 
        "name": "minor", 
        "population": "", 
        "population_proper": ""
    }, 
    {
        "city": "Rajanpur", 
        "latitude": "29.1041", 
        "longitude": "70.3297", 
        "title": "Pakistan", 
        "iso2": "PK", 
        "description": "Punjab", 
        "name": "minor", 
        "population": "", 
        "population_proper": ""
    }, 
    {
        "city": "Dera Allahyar", 
        "latitude": "28.4167", 
        "longitude": "68.1667", 
        "title": "Pakistan", 
        "iso2": "PK", 
        "description": "Balochist\u0101n", 
        "name": "minor", 
        "population": "", 
        "population_proper": ""
    }, 
    {
        "city": "Shahdad Kot", 
        "latitude": "27.8473", 
        "longitude": "67.9068", 
        "title": "Pakistan", 
        "iso2": "PK", 
        "description": "Sindh", 
        "name": "minor", 
        "population": "", 
        "population_proper": ""
    }, 
    {
        "city": "Pishin", 
        "latitude": "30.5833", 
        "longitude": "67.0000", 
        "title": "Pakistan", 
        "iso2": "PK", 
        "description": "Balochist\u0101n", 
        "name": "minor", 
        "population": "", 
        "population_proper": ""
    }, 
    {
        "city": "Sanghar", 
        "latitude": "26.0464", 
        "longitude": "68.9481", 
        "title": "Pakistan", 
        "iso2": "PK", 
        "description": "Sindh", 
        "name": "minor", 
        "population": "", 
        "population_proper": ""
    }, 
    {
        "city": "Upper Dir", 
        "latitude": "35.2074", 
        "longitude": "71.8768", 
        "title": "Pakistan", 
        "iso2": "PK", 
        "description": "Khyber Pakhtunkhwa", 
        "name": "minor", 
        "population": "", 
        "population_proper": ""
    }, 
    {
        "city": "Thatta", 
        "latitude": "24.7461", 
        "longitude": "67.9243", 
        "title": "Pakistan", 
        "iso2": "PK", 
        "description": "Sindh", 
        "name": "minor", 
        "population": "", 
        "population_proper": ""
    }, 
    {
        "city": "Dera Murad Jamali", 
        "latitude": "28.5466", 
        "longitude": "68.2231", 
        "title": "Pakistan", 
        "iso2": "PK", 
        "description": "Balochist\u0101n", 
        "name": "minor", 
        "population": "", 
        "population_proper": ""
    }, 
    {
        "city": "Kohlu", 
        "latitude": "29.8965", 
        "longitude": "69.2532", 
        "title": "Pakistan", 
        "iso2": "PK", 
        "description": "Balochist\u0101n", 
        "name": "minor", 
        "population": "", 
        "population_proper": ""
    }, 
    {
        "city": "Mastung", 
        "latitude": "29.7997", 
        "longitude": "66.8455", 
        "title": "Pakistan", 
        "iso2": "PK", 
        "description": "Balochist\u0101n", 
        "name": "minor", 
        "population": "", 
        "population_proper": ""
    }, 
    {
        "city": "Dasu", 
        "latitude": "35.2917", 
        "longitude": "73.2906", 
        "title": "Pakistan", 
        "iso2": "PK", 
        "description": "Khyber Pakhtunkhwa", 
        "name": "minor", 
        "population": "", 
        "population_proper": ""
    }, 
    {
        "city": "Athmuqam", 
        "latitude": "34.5717", 
        "longitude": "73.8972", 
        "title": "Pakistan", 
        "iso2": "PK", 
        "description": "Azad Kashmir", 
        "name": "minor", 
        "population": "", 
        "population_proper": ""
    }, 
    {
        "city": "Loralai", 
        "latitude": "30.3705", 
        "longitude": "68.5979", 
        "title": "Pakistan", 
        "iso2": "PK", 
        "description": "Balochist\u0101n", 
        "name": "minor", 
        "population": "", 
        "population_proper": ""
    }, 
    {
        "city": "Barkhan", 
        "latitude": "29.8977", 
        "longitude": "69.5256", 
        "title": "Pakistan", 
        "iso2": "PK", 
        "description": "Balochist\u0101n", 
        "name": "minor", 
        "population": "", 
        "population_proper": ""
    }, 
    {
        "city": "Musa Khel Bazar", 
        "latitude": "30.8594", 
        "longitude": "69.8221", 
        "title": "Pakistan", 
        "iso2": "PK", 
        "description": "Balochist\u0101n", 
        "name": "minor", 
        "population": "", 
        "population_proper": ""
    }, 
    {
        "city": "Ziarat", 
        "latitude": "30.3814", 
        "longitude": "67.7258", 
        "title": "Pakistan", 
        "iso2": "PK", 
        "description": "Balochist\u0101n", 
        "name": "minor", 
        "population": "", 
        "population_proper": ""
    }, 
    {
        "city": "Gandava", 
        "latitude": "28.6132", 
        "longitude": "67.4856", 
        "title": "Pakistan", 
        "iso2": "PK", 
        "description": "Balochist\u0101n", 
        "name": "minor", 
        "population": "", 
        "population_proper": ""
    }, 
    {
        "city": "Sibi", 
        "latitude": "29.5430", 
        "longitude": "67.8773", 
        "title": "Pakistan", 
        "iso2": "PK", 
        "description": "Balochist\u0101n", 
        "name": "minor", 
        "population": "", 
        "population_proper": ""
    }, 
    {
        "city": "Dera Bugti", 
        "latitude": "29.0362", 
        "longitude": "69.1585", 
        "title": "Pakistan", 
        "iso2": "PK", 
        "description": "Balochist\u0101n", 
        "name": "minor", 
        "population": "", 
        "population_proper": ""
    }, 
    {
        "city": "Eidgah", 
        "latitude": "35.3471", 
        "longitude": "74.8563", 
        "title": "Pakistan", 
        "iso2": "PK", 
        "description": "Gilgit-Baltistan", 
        "name": "minor", 
        "population": "", 
        "population_proper": ""
    }, 
    {
        "city": "Turbat", 
        "latitude": "26.0012", 
        "longitude": "63.0485", 
        "title": "Pakistan", 
        "iso2": "PK", 
        "description": "Balochist\u0101n", 
        "name": "minor", 
        "population": "", 
        "population_proper": ""
    }, 
    {
        "city": "Uthal", 
        "latitude": "25.8072", 
        "longitude": "66.6219", 
        "title": "Pakistan", 
        "iso2": "PK", 
        "description": "Balochist\u0101n", 
        "name": "minor", 
        "population": "", 
        "population_proper": ""
    }, 
    {
        "city": "Khuzdar", 
        "latitude": "27.7384", 
        "longitude": "66.6434", 
        "title": "Pakistan", 
        "iso2": "PK", 
        "description": "Balochist\u0101n", 
        "name": "minor", 
        "population": "", 
        "population_proper": ""
    }, 
    {
        "city": "Chilas", 
        "latitude": "35.4206", 
        "longitude": "74.0967", 
        "title": "Pakistan", 
        "iso2": "PK", 
        "description": "Gilgit-Baltistan", 
        "name": "minor", 
        "population": "", 
        "population_proper": ""
    }, 
    {
        "city": "Kalat", 
        "latitude": "29.0266", 
        "longitude": "66.5936", 
        "title": "Pakistan", 
        "iso2": "PK", 
        "description": "Balochist\u0101n", 
        "name": "minor", 
        "population": "", 
        "population_proper": ""
    }, 
    {
        "city": "Panjgur", 
        "latitude": "26.9644", 
        "longitude": "64.0903", 
        "title": "Pakistan", 
        "iso2": "PK", 
        "description": "Balochist\u0101n", 
        "name": "minor", 
        "population": "", 
        "population_proper": ""
    }, 
    {
        "city": "Gakuch", 
        "latitude": "36.1736", 
        "longitude": "73.7667", 
        "title": "Pakistan", 
        "iso2": "PK", 
        "description": "Gilgit-Baltistan", 
        "name": "minor", 
        "population": "", 
        "population_proper": ""
    }, 
    {
        "city": "Qila Saifullah", 
        "latitude": "30.7008", 
        "longitude": "68.3598", 
        "title": "Pakistan", 
        "iso2": "PK", 
        "description": "Balochist\u0101n", 
        "name": "minor", 
        "population": "", 
        "population_proper": ""
    }, 
    {
        "city": "Kharan", 
        "latitude": "28.5846", 
        "longitude": "65.4150", 
        "title": "Pakistan", 
        "iso2": "PK", 
        "description": "Balochist\u0101n", 
        "name": "minor", 
        "population": "", 
        "population_proper": ""
    }, 
    {
        "city": "Aliabad", 
        "latitude": "36.3078", 
        "longitude": "74.6178", 
        "title": "Pakistan", 
        "iso2": "PK", 
        "description": "Gilgit-Baltistan", 
        "name": "minor", 
        "population": "", 
        "population_proper": ""
    }, 
    {
        "city": "Awaran", 
        "latitude": "26.4568", 
        "longitude": "65.2314", 
        "title": "Pakistan", 
        "iso2": "PK", 
        "description": "Balochist\u0101n", 
        "name": "minor", 
        "population": "", 
        "population_proper": ""
    }, 
    {
        "city": "Dalbandin", 
        "latitude": "28.8885", 
        "longitude": "64.4062", 
        "title": "Pakistan", 
        "iso2": "PK", 
        "description": "Balochist\u0101n", 
        "name": "minor", 
        "population": "", 
        "population_proper": ""
    }
]